{
  "type": "FeatureCollection",
  "features": [
    {
      "type": "Feature",
      "properties": {
        "name": "Donna Marie",
        "artist": "",
        "address": "8172 Shore Dr.",
        "sponsor": ""
      },
      "geometry": {
        "type": "Point",
        "coordinates": [
          -76.190796,
          36.923748
        ]
      }
    },
    {
      "type": "Feature",
      "properties": {
        "name": "Maid For Life",
        "artist": "",
        "address": "8172 Shore Dr.",
        "sponsor": ""
      },
      "geometry": {
        "type": "Point",
        "coordinates": [
          -76.205353,
          36.878101
        ]
      }
    },
    {
      "type": "Feature",
      "properties": {
        "name": "Faith",
        "artist": "",
        "address": "5900 Lake Wright Dr.",
        "sponsor": ""
      },
      "geometry": {
        "type": "Point",
        "coordinates": [
          -76.206047,
          36.866787
        ]
      }
    },
    {
      "type": "Feature",
      "properties": {
        "name": "1950s Fish Dish",
        "artist": "",
        "address": "1309 Kempsville Rd.",
        "sponsor": ""
      },
      "geometry": {
        "type": "Point",
        "coordinates": [
          -76.29512,
          36.871475
        ]
      }
    },
    {
      "type": "Feature",
      "properties": {
        "name": "By the Stars",
        "artist": "",
        "address": "760 W. 22nd St.",
        "sponsor": ""
      },
      "geometry": {
        "type": "Point",
        "coordinates": [
          -76.301544,
          36.863968
        ]
      }
    },
    {
      "type": "Feature",
      "properties": {
        "name": "Courtney",
        "artist": "Georgia Mason",
        "address": "Colley Ave & Redgate Ave",
        "sponsor": "Taylor associates"
      },
      "geometry": {
        "type": "Point",
        "coordinates": [
          -76.292412,
          36.852833
        ]
      }
    },
    {
      "type": "Feature",
      "properties": {
        "name": "Dominique",
        "artist": "John Hickey",
        "address": "253 West Bute St",
        "sponsor": "Equity Office Properties/Dominion Tower"
      },
      "geometry": {
        "type": "Point",
        "coordinates": [
          -76.287613,
          36.843376
        ]
      }
    },
    {
      "type": "Feature",
      "properties": {
        "name": "Low Tide",
        "artist": "",
        "address": "999 Waterside Drive",
        "sponsor": ""
      },
      "geometry": {
        "type": "Point",
        "coordinates": [
          -76.294296,
          36.851948
        ]
      }
    },
    {
      "type": "Feature",
      "properties": {
        "name": "USS Wisconsin",
        "artist": "",
        "address": "321 W. Freemason St.",
        "sponsor": ""
      },
      "geometry": {
        "type": "Point",
        "coordinates": [
          -76.2911,
          36.844303
        ]
      }
    },
    {
      "type": "Feature",
      "properties": {
        "name": "Ocean Patina",
        "artist": "Cindy Graf",
        "address": "333 Waterside Drive",
        "sponsor": "American Rover/Waterside Marina"
      },
      "geometry": {
        "type": "Point",
        "coordinates": [
          -76.292931,
          36.844406
        ]
      }
    },
    {
      "type": "Feature",
      "properties": {
        "name": "Scales Of Justice",
        "artist": "",
        "address": "333 Waterside Drive",
        "sponsor": ""
      },
      "geometry": {
        "type": "Point",
        "coordinates": [
          -76.293686,
          36.846443
        ]
      }
    },
    {
      "type": "Feature",
      "properties": {
        "name": "Karen",
        "artist": "",
        "address": "101 W. Main St.",
        "sponsor": "Festevents"
      },
      "geometry": {
        "type": "Point",
        "coordinates": [
          -76.294151,
          36.846798
        ]
      }
    },
    {
      "type": "Feature",
      "properties": {
        "name": "Ships Ahoy",
        "artist": "Chris Alexander",
        "address": "1 Waterside Drive",
        "sponsor": "Hampton Roads Shipping Association"
      },
      "geometry": {
        "type": "Point",
        "coordinates": [
          -76.290337,
          36.847
        ]
      }
    },
    {
      "type": "Feature",
      "properties": {
        "name": "Flower Garden",
        "artist": "",
        "address": "236 E. Plume St.",
        "sponsor": ""
      },
      "geometry": {
        "type": "Point",
        "coordinates": [
          -76.292488,
          36.849594
        ]
      }
    },
    {
      "type": "Feature",
      "properties": {
        "name": "Gran Bea",
        "artist": "Chris Alexander",
        "address": "201 Boush St",
        "sponsor": "Marathon Development Group"
      },
      "geometry": {
        "type": "Point",
        "coordinates": [
          -76.290512,
          36.85268
        ]
      }
    },
    {
      "type": "Feature",
      "properties": {
        "name": "Mirror Mosaic",
        "artist": "",
        "address": "430 Boush St.",
        "sponsor": ""
      },
      "geometry": {
        "type": "Point",
        "coordinates": [
          -76.290993,
          36.852539
        ]
      }
    },
    {
      "type": "Feature",
      "properties": {
        "name": "Oceana",
        "artist": "",
        "address": "403 Boush St",
        "sponsor": ""
      },
      "geometry": {
        "type": "Point",
        "coordinates": [
          -76.290482,
          36.852737
        ]
      }
    },
    {
      "type": "Feature",
      "properties": {
        "name": "Gem From the Sea",
        "artist": "Cynthia Graf",
        "address": "436 Boush St",
        "sponsor": "General Service Administration"
      },
      "geometry": {
        "type": "Point",
        "coordinates": [
          -76.291298,
          36.847996
        ]
      }
    },
    {
      "type": "Feature",
      "properties": {
        "name": "Full Circle",
        "artist": "Gayle Hinkley",
        "address": "City Hall Ave. & Granby St.",
        "sponsor": "IDA"
      },
      "geometry": {
        "type": "Point",
        "coordinates": [
          -76.289749,
          36.849064
        ]
      }
    },
    {
      "type": "Feature",
      "properties": {
        "name": "Jestacular",
        "artist": "",
        "address": "Plume St. & Commercial Place",
        "sponsor": ""
      },
      "geometry": {
        "type": "Point",
        "coordinates": [
          -76.292168,
          36.846775
        ]
      }
    },
    {
      "type": "Feature",
      "properties": {
        "name": "Maid in Voyage",
        "artist": "",
        "address": "111 Granby St",
        "sponsor": ""
      },
      "geometry": {
        "type": "Point",
        "coordinates": [
          -76.292137,
          36.846859
        ]
      }
    },
    {
      "type": "Feature",
      "properties": {
        "name": "The Jewel of Norfolk",
        "artist": "Bess Decker",
        "address": "111 Granby St",
        "sponsor": "Decker, Cardon, Weintraub, and Neskis"
      },
      "geometry": {
        "type": "Point",
        "coordinates": [
          -76.291985,
          36.845726
        ]
      }
    },
    {
      "type": "Feature",
      "properties": {
        "name": "Lola",
        "artist": "Wendy Farman",
        "address": "109 East Main Street",
        "sponsor": "Maury High School"
      },
      "geometry": {
        "type": "Point",
        "coordinates": [
          -76.293327,
          36.845306
        ]
      }
    },
    {
      "type": "Feature",
      "properties": {
        "name": "Mei Madeline",
        "artist": "Nancy Cockman",
        "address": "College Drive and College",
        "sponsor": "Evergreen American Corporation"
      },
      "geometry": {
        "type": "Point",
        "coordinates": [
          -76.29509,
          36.849903
        ]
      }
    },
    {
      "type": "Feature",
      "properties": {
        "name": "Princess Azalea",
        "artist": "Bess Decker",
        "address": "Tazewell St. & Brooke Ave.",
        "sponsor": "Peter Decker, Jr. & Howard Webb"
      },
      "geometry": {
        "type": "Point",
        "coordinates": [
          -76.294357,
          36.847481
        ]
      }
    },
    {
      "type": "Feature",
      "properties": {
        "name": "Flight",
        "artist": "Ken Wright",
        "address": "1 Waterside Drive",
        "sponsor": "Shriver & Holland Associates"
      },
      "geometry": {
        "type": "Point",
        "coordinates": [
          -76.295563,
          36.851723
        ]
      }
    },
    {
      "type": "Feature",
      "properties": {
        "name": "Gliding Through the Bay",
        "artist": "",
        "address": "355 West Freemason",
        "sponsor": ""
      },
      "geometry": {
        "type": "Point",
        "coordinates": [
          -76.26635,
          36.95789
        ]
      }
    },
    {
      "type": "Feature",
      "properties": {
        "name": "Mujeres del Mar",
        "artist": "Paul Baker",
        "address": "9709 Hampton Blvd.",
        "sponsor": "The Rosemyr Corp"
      },
      "geometry": {
        "type": "Point",
        "coordinates": [
          -76.293587,
          36.85223
        ]
      }
    },
    {
      "type": "Feature",
      "properties": {
        "name": "Blue Mirror Mermaid",
        "artist": "",
        "address": "Yarmouth & Freemason",
        "sponsor": ""
      },
      "geometry": {
        "type": "Point",
        "coordinates": [
          -76.250778,
          36.952656
        ]
      }
    },
    {
      "type": "Feature",
      "properties": {
        "name": "Sirena At Play In Willoughby",
        "artist": "",
        "address": "9646 Granby St.",
        "sponsor": ""
      },
      "geometry": {
        "type": "Point",
        "coordinates": [
          -76.251556,
          36.953228
        ]
      }
    },
    {
      "type": "Feature",
      "properties": {
        "name": "Nautical Mermaid",
        "artist": "",
        "address": "9646 Granby St.",
        "sponsor": ""
      },
      "geometry": {
        "type": "Point",
        "coordinates": [
          -76.26088,
          36.960022
        ]
      }
    },
    {
      "type": "Feature",
      "properties": {
        "name": "A Rising Community",
        "artist": "",
        "address": "404 W. Ocean View Ave.",
        "sponsor": ""
      },
      "geometry": {
        "type": "Point",
        "coordinates": [
          -76.243034,
          36.948742
        ]
      }
    },
    {
      "type": "Feature",
      "properties": {
        "name": "Mirror Mosaic",
        "artist": "",
        "address": "9622 Chesapeake Blvd",
        "sponsor": ""
      },
      "geometry": {
        "type": "Point",
        "coordinates": [
          -76.233856,
          36.943249
        ]
      }
    },
    {
      "type": "Feature",
      "properties": {
        "name": "Maid For the Fleet",
        "artist": "",
        "address": "1330 E. Ocean View",
        "sponsor": ""
      },
      "geometry": {
        "type": "Point",
        "coordinates": [
          -76.309021,
          36.947659
        ]
      }
    },
    {
      "type": "Feature",
      "properties": {
        "name": "Nora Folk",
        "artist": "",
        "address": "9079 Hampton Blvd.",
        "sponsor": ""
      },
      "geometry": {
        "type": "Point",
        "coordinates": [
          -76.29232,
          36.855995
        ]
      }
    },
    {
      "type": "Feature",
      "properties": {
        "name": "Jester Mermaid",
        "artist": "",
        "address": "1 Memorial Pl.",
        "sponsor": ""
      },
      "geometry": {
        "type": "Point",
        "coordinates": [
          -76.287636,
          36.856167
        ]
      }
    },
    {
      "type": "Feature",
      "properties": {
        "name": "Jewel the Bar Maiden",
        "artist": "",
        "address": "144 East Olney Road",
        "sponsor": ""
      },
      "geometry": {
        "type": "Point",
        "coordinates": [
          -76.294785,
          36.883816
        ]
      }
    },
    {
      "type": "Feature",
      "properties": {
        "name": "Lea Pard",
        "artist": "",
        "address": "4300 Colley Ave.",
        "sponsor": ""
      },
      "geometry": {
        "type": "Point",
        "coordinates": [
          -76.303131,
          36.890614
        ]
      }
    },
    {
      "type": "Feature",
      "properties": {
        "name": "Tiger Wood",
        "artist": "",
        "address": "5200 Hampton Blvd",
        "sponsor": ""
      },
      "geometry": {
        "type": "Point",
        "coordinates": [
          -76.277672,
          36.876785
        ]
      }
    },
    {
      "type": "Feature",
      "properties": {
        "name": "Sirene de Mission",
        "artist": "",
        "address": "3500 Granby St",
        "sponsor": ""
      },
      "geometry": {
        "type": "Point",
        "coordinates": [
          -76.280075,
          36.898182
        ]
      }
    },
    {
      "type": "Feature",
      "properties": {
        "name": "Miss Liberty",
        "artist": "",
        "address": "150 Kingsley Ln.",
        "sponsor": ""
      },
      "geometry": {
        "type": "Point",
        "coordinates": [
          -76.240463,
          36.854759
        ]
      }
    },
    {
      "type": "Feature",
      "properties": {
        "name": "Liquid Energy",
        "artist": "",
        "address": "3550 E. Virginia Beach Blvd",
        "sponsor": ""
      },
      "geometry": {
        "type": "Point",
        "coordinates": [
          -76.241753,
          36.857101
        ]
      }
    },
    {
      "type": "Feature",
      "properties": {
        "name": "A School of Fish",
        "artist": "",
        "address": "1111 Ingleside Rd.",
        "sponsor": ""
      },
      "geometry": {
        "type": "Point",
        "coordinates": [
          -76.263725,
          36.888458
        ]
      }
    },
    {
      "type": "Feature",
      "properties": {
        "name": "Miss NATO",
        "artist": "",
        "address": "Lakewood Park",
        "sponsor": ""
      },
      "geometry": {
        "type": "Point",
        "coordinates": [
          -76.266884,
          36.888168
        ]
      }
    },
    {
      "type": "Feature",
      "properties": {
        "name": "Palace Prince Beatrice",
        "artist": "",
        "address": "1529 Willow Wood Dr.",
        "sponsor": ""
      },
      "geometry": {
        "type": "Point",
        "coordinates": [
          -76.288933,
          36.86858
        ]
      }
    },
    {
      "type": "Feature",
      "properties": {
        "name": "Sea Shimmer",
        "artist": "",
        "address": "336 W 21st St.",
        "sponsor": ""
      },
      "geometry": {
        "type": "Point",
        "coordinates": [
          -76.300262,
          36.872688
        ]
      }
    },
    {
      "type": "Feature",
      "properties": {
        "name": "Moo Maid",
        "artist": "",
        "address": "989 W 21st St.",
        "sponsor": ""
      },
      "geometry": {
        "type": "Point",
        "coordinates": [
          -76.284775,
          36.865089
        ]
      }
    },
    {
      "type": "Feature",
      "properties": {
        "name": "Miss Virginia Vine",
        "artist": "",
        "address": "1804 Monticello Ave.",
        "sponsor": ""
      },
      "geometry": {
        "type": "Point",
        "coordinates": [
          -76.28476,
          36.865154
        ]
      }
    },
    {
      "type": "Feature",
      "properties": {
        "name": "Seasonal Mermaid",
        "artist": "",
        "address": "1804 Monticello Ave.",
        "sponsor": ""
      },
      "geometry": {
        "type": "Point",
        "coordinates": [
          -76.199898,
          36.901356
        ]
      }
    },
    {
      "type": "Feature",
      "properties": {
        "name": "Evie",
        "artist": "",
        "address": "6700 Azalea Garden Rd.",
        "sponsor": ""
      },
      "geometry": {
        "type": "Point",
        "coordinates": [
          -76.252556,
          36.916618
        ]
      }
    },
    {
      "type": "Feature",
      "properties": {
        "name": "Music Mosaic",
        "artist": "",
        "address": "7921 Harold St.",
        "sponsor": ""
      },
      "geometry": {
        "type": "Point",
        "coordinates": [
          -76.289383,
          36.850147
        ]
      }
    },
    {
      "type": "Feature",
      "properties": {
        "name": "Shamrock",
        "artist": "",
        "address": "317 Monticello Ave",
        "sponsor": ""
      },
      "geometry": {
        "type": "Point",
        "coordinates": [
          -76.272659,
          36.913792
        ]
      }
    },
    {
      "type": "Feature",
      "properties": {
        "name": "Ms. Literacy",
        "artist": "Deborah T. Small",
        "address": "7506 Granby St.",
        "sponsor": "The Virginian-Pilot"
      },
      "geometry": {
        "type": "Point",
        "coordinates": [
          -76.289467,
          36.854362
        ]
      }
    },
    {
      "type": "Feature",
      "properties": {
        "name": "Siren",
        "artist": "",
        "address": "",
        "sponsor": ""
      },
      "geometry": {
        "type": "Point",
        "coordinates": [
          -76.27317,
          36.912941
        ]
      }
    },
    {
      "type": "Feature",
      "properties": {
        "name": "Toga",
        "artist": "",
        "address": "7400 Granby St.",
        "sponsor": ""
      },
      "geometry": {
        "type": "Point",
        "coordinates": [
          -76.283646,
          36.832867
        ]
      }
    },
    {
      "type": "Feature",
      "properties": {
        "name": "Williams' School Mermaid",
        "artist": "",
        "address": "Berkley Ave & Main St",
        "sponsor": ""
      },
      "geometry": {
        "type": "Point",
        "coordinates": [
          -76.296906,
          36.857803
        ]
      }
    },
    {
      "type": "Feature",
      "properties": {
        "name": "MHI Mermaid",
        "artist": "",
        "address": "418 Colonial Ave.",
        "sponsor": ""
      },
      "geometry": {
        "type": "Point",
        "coordinates": [
          -76.308815,
          36.863579
        ]
      }
    },
    {
      "type": "Feature",
      "properties": {
        "name": "Miss Definitely Downtown",
        "artist": "Chris Alexander",
        "address": "501 Claremont Ave",
        "sponsor": "Downtown Norfolk Council"
      },
      "geometry": {
        "type": "Point",
        "coordinates": [
          -76.291367,
          36.848019
        ]
      }
    },
    {
      "type": "Feature",
      "properties": {
        "name": "Her Favorite Port",
        "artist": "",
        "address": "City Hall Ave. & Granby St.",
        "sponsor": ""
      },
      "geometry": {
        "type": "Point",
        "coordinates": [
          -76.296829,
          36.838955
        ]
      }
    },
    {
      "type": "Feature",
      "properties": {
        "name": "Aubrica",
        "artist": "",
        "address": "3 Harbor Ct.",
        "sponsor": ""
      },
      "geometry": {
        "type": "Point",
        "coordinates": [
          -76.203079,
          36.855148
        ]
      }
    },
    {
      "type": "Feature",
      "properties": {
        "name": "Techno Mermaid",
        "artist": "",
        "address": "5901 E. Virginia Beach Blvd.",
        "sponsor": ""
      },
      "geometry": {
        "type": "Point",
        "coordinates": [
          -76.292236,
          36.85535
        ]
      }
    },
    {
      "type": "Feature",
      "properties": {
        "name": "Silver Mermaid",
        "artist": "",
        "address": "745 Duke St.",
        "sponsor": ""
      },
      "geometry": {
        "type": "Point",
        "coordinates": [
          -76.30143,
          36.872555
        ]
      }
    },
    {
      "type": "Feature",
      "properties": {
        "name": "Mermaid de Leche",
        "artist": "",
        "address": "2204 Hampton Blvd",
        "sponsor": ""
      },
      "geometry": {
        "type": "Point",
        "coordinates": [
          -76.290329,
          36.850315
        ]
      }
    },
    {
      "type": "Feature",
      "properties": {
        "name": "By the Sea",
        "artist": "",
        "address": "300 Granby St.",
        "sponsor": ""
      },
      "geometry": {
        "type": "Point",
        "coordinates": [
          -76.289291,
          36.843616
        ]
      }
    },
    {
      "type": "Feature",
      "properties": {
        "name": "Elizabeth",
        "artist": "",
        "address": "777 Waterside Dr.",
        "sponsor": ""
      },
      "geometry": {
        "type": "Point",
        "coordinates": [
          -76.232971,
          36.852997
        ]
      }
    },
    {
      "type": "Feature",
      "properties": {
        "name": "Reflections of the Soul",
        "artist": "",
        "address": "891 Norfolk Square",
        "sponsor": ""
      },
      "geometry": {
        "type": "Point",
        "coordinates": [
          -76.304413,
          36.903358
        ]
      }
    },
    {
      "type": "Feature",
      "properties": {
        "name": "Thumbelina",
        "artist": "",
        "address": "Lafayette Bridge",
        "sponsor": ""
      },
      "geometry": {
        "type": "Point",
        "coordinates": [
          -76.30455,
          36.868771
        ]
      }
    },
    {
      "type": "Feature",
      "properties": {
        "name": "Ocarina",
        "artist": "",
        "address": "1106 Princess Anne Rd.",
        "sponsor": ""
      },
      "geometry": {
        "type": "Point",
        "coordinates": [
          -76.074142,
          36.903152
        ]
      }
    },
    {
      "type": "Feature",
      "properties": {
        "name": "Plated Mermaid",
        "artist": "Ed Gibbs",
        "address": "2984 Adam Keeling Rd",
        "sponsor": "Tiderwater Community College"
      },
      "geometry": {
        "type": "Point",
        "coordinates": [
          -76.290581,
          36.850117
        ]
      }
    },
    {
      "type": "Feature",
      "properties": {
        "name": "Hope",
        "artist": "",
        "address": "College Drive and Granby St.",
        "sponsor": ""
      },
      "geometry": {
        "type": "Point",
        "coordinates": [
          -76.206184,
          36.866604
        ]
      }
    },
    {
      "type": "Feature",
      "properties": {
        "name": "Lady of Little Creek",
        "artist": "",
        "address": "1309 Kempsville Rd.",
        "sponsor": ""
      },
      "geometry": {
        "type": "Point",
        "coordinates": [
          -76.19175,
          36.916744
        ]
      }
    },
    {
      "type": "Feature",
      "properties": {
        "name": "Sukey's Mermaid",
        "artist": "",
        "address": "2600 Tarawa Ct.",
        "sponsor": ""
      },
      "geometry": {
        "type": "Point",
        "coordinates": [
          -76.193115,
          36.872814
        ]
      }
    },
    {
      "type": "Feature",
      "properties": {
        "name": "Rainbow",
        "artist": "",
        "address": "1585 Wesleyan Dr.",
        "sponsor": ""
      },
      "geometry": {
        "type": "Point",
        "coordinates": [
          -76.129883,
          36.832458
        ]
      }
    },
    {
      "type": "Feature",
      "properties": {
        "name": "Accedental Tourist",
        "artist": "",
        "address": "4455 South Blvd",
        "sponsor": ""
      },
      "geometry": {
        "type": "Point",
        "coordinates": [
          -76.224052,
          36.938911
        ]
      }
    },
    {
      "type": "Feature",
      "properties": {
        "name": "Fresh From the Sea",
        "artist": "",
        "address": "1848 East Ocean View Ave",
        "sponsor": ""
      },
      "geometry": {
        "type": "Point",
        "coordinates": [
          -76.101318,
          36.813457
        ]
      }
    },
    {
      "type": "Feature",
      "properties": {
        "name": "Candy Bar/ Go Diva",
        "artist": "Ben Teague",
        "address": "Chimney Hill Shopping Center",
        "sponsor": "H. Blount Hunter Retail & Real Estate Research Co."
      },
      "geometry": {
        "type": "Point",
        "coordinates": [
          -76.288292,
          36.848656
        ]
      }
    },
    {
      "type": "Feature",
      "properties": {
        "name": "Horizons",
        "artist": "",
        "address": "300 Monticello Ave",
        "sponsor": ""
      },
      "geometry": {
        "type": "Point",
        "coordinates": [
          -76.095375,
          36.861519
        ]
      }
    },
    {
      "type": "Feature",
      "properties": {
        "name": "She Sells Sea Shells",
        "artist": "",
        "address": "3532 Kings Grant Rd",
        "sponsor": ""
      },
      "geometry": {
        "type": "Point",
        "coordinates": [
          -76.020332,
          37.267139
        ]
      }
    },
    {
      "type": "Feature",
      "properties": {
        "name": "Mirror Mosaic II",
        "artist": "",
        "address": "115 Mason Ave",
        "sponsor": ""
      },
      "geometry": {
        "type": "Point",
        "coordinates": [
          -76.020287,
          37.267136
        ]
      }
    },
    {
      "type": "Feature",
      "properties": {
        "name": "Celebrating The Arts",
        "artist": "",
        "address": "2-98 Strawberry St.",
        "sponsor": ""
      },
      "geometry": {
        "type": "Point",
        "coordinates": [
          -76.017578,
          37.267544
        ]
      }
    },
    {
      "type": "Feature",
      "properties": {
        "name": "Healing Hands Mosaic",
        "artist": "",
        "address": "1800 Republic Rd.",
        "sponsor": ""
      },
      "geometry": {
        "type": "Point",
        "coordinates": [
          -76.026825,
          36.85236
        ]
      }
    },
    {
      "type": "Feature",
      "properties": {
        "name": "Mer-Majesty",
        "artist": "",
        "address": "3121 Sandfiddler Rd",
        "sponsor": ""
      },
      "geometry": {
        "type": "Point",
        "coordinates": [
          -75.933937,
          36.718895
        ]
      }
    },
    {
      "type": "Feature",
      "properties": {
        "name": "MerMax II",
        "artist": "",
        "address": "4500 Virgnia Beach Blvd",
        "sponsor": ""
      },
      "geometry": {
        "type": "Point",
        "coordinates": [
          -76.13221,
          36.843868
        ]
      }
    },
    {
      "type": "Feature",
      "properties": {
        "name": "Star",
        "artist": "",
        "address": "8720 Granby St.",
        "sponsor": ""
      },
      "geometry": {
        "type": "Point",
        "coordinates": [
          -76.26265,
          36.936646
        ]
      }
    },
    {
      "type": "Feature",
      "properties": {
        "name": "Garden Tempest",
        "artist": "",
        "address": "2252 Hatton St.",
        "sponsor": ""
      },
      "geometry": {
        "type": "Point",
        "coordinates": [
          -76.059853,
          36.912777
        ]
      }
    },
    {
      "type": "Feature",
      "properties": {
        "name": "Picasso's Beauty",
        "artist": "",
        "address": "241 Corporate Blvd",
        "sponsor": ""
      },
      "geometry": {
        "type": "Point",
        "coordinates": [
          -76.213715,
          36.837528
        ]
      }
    },
    {
      "type": "Feature",
      "properties": {
        "name": "Norfolk, Gateway to the Sea",
        "artist": "",
        "address": "3335 Military Highway",
        "sponsor": ""
      },
      "geometry": {
        "type": "Point",
        "coordinates": [
          -76.217842,
          36.886162
        ]
      }
    },
    {
      "type": "Feature",
      "properties": {
        "name": "Beauty of the Sea",
        "artist": "",
        "address": "863 Military Highway",
        "sponsor": ""
      },
      "geometry": {
        "type": "Point",
        "coordinates": [
          -76.210342,
          36.853172
        ]
      }
    },
    {
      "type": "Feature",
      "properties": {
        "name": "Mermaid of Justice",
        "artist": "",
        "address": "811 E. city Hall Ave.",
        "sponsor": ""
      },
      "geometry": {
        "type": "Point",
        "coordinates": [
          -76.286369,
          36.845287
        ]
      }
    },
    {
      "type": "Feature",
      "properties": {
        "name": "Carousel-Ann",
        "artist": "John Moore Reed",
        "address": "810 Union Street",
        "sponsor": "Roper Morgan Group/Burkhard Thomas"
      },
      "geometry": {
        "type": "Point",
        "coordinates": [
          -76.28598869,
          36.84419028
        ]
      }
    },
    {
      "type": "Feature",
      "properties": {
        "name": "Norrie Folk",
        "artist": "Georgia Mason",
        "address": "810 Union Street",
        "sponsor": "City of Norfolk"
      },
      "geometry": {
        "type": "Point",
        "coordinates": [
          -76.28598869,
          36.84419028
        ]
      }
    },
    {
      "type": "Feature",
      "properties": {
        "name": "Jealous Mistress",
        "artist": "Joscelyn L. Rivers",
        "address": "500 Main St.",
        "sponsor": "Protogyrou and Rigney, PLC"
      },
      "geometry": {
        "type": "Point",
        "coordinates": [
          -76.288217,
          36.845808
        ]
      }
    },
    {
      "type": "Feature",
      "properties": {
        "name": "KaleidoScope",
        "artist": "Kevin Gallop",
        "address": "Brambleton & St. Pauls Blvd",
        "sponsor": "Scope"
      },
      "geometry": {
        "type": "Point",
        "coordinates": [
          -76.285929,
          36.853716
        ]
      }
    }
  ]
}
